{
  "hospitals": [
    {
      "id": "alberta-children-s-hospital",
      "name": "Alberta Children's Hospital",
      "city": "Calgary",
      "region": "Calgary Zone",
      "waitTime": 77,
      "waitTimeLabel": "1 hr 17 min",
      "status": "Yellow",
      "updatedAt": "2026-07-22T01:55:18.389Z",
      "category": "Emergency",
      "address": "2888 Shaganappi Trail NW Calgary Alberta T3B 6A8",
      "note": "Open 24 hours for patients 17 & under (two adult family/support persons allowed)",
      "latitude": 51.074674,
      "longitude": -114.146892
    },
    {
      "id": "foothills-medical-centre",
      "name": "Foothills Medical Centre",
      "city": "Calgary",
      "region": "Calgary Zone",
      "waitTime": 246,
      "waitTimeLabel": "4 hr 6 min",
      "status": "Red",
      "updatedAt": "2026-07-22T01:55:18.389Z",
      "category": "Emergency",
      "address": "1403 29 Street NW Calgary Alberta T2N 2T9",
      "note": "Open 24 hours<br />For patients 15 and older",
      "latitude": 51.064479,
      "longitude": -114.132786
    },
    {
      "id": "peter-lougheed-centre",
      "name": "Peter Lougheed Centre",
      "city": "Calgary",
      "region": "Calgary Zone",
      "waitTime": 239,
      "waitTimeLabel": "3 hr 59 min",
      "status": "Red",
      "updatedAt": "2026-07-22T01:55:18.389Z",
      "category": "Emergency",
      "address": "3500 26 Avenue NE Calgary Alberta T1Y 6J4",
      "note": "Open 24 hours",
      "latitude": 51.078797,
      "longitude": -113.984548
    },
    {
      "id": "rockyview-general-hospital",
      "name": "Rockyview General Hospital",
      "city": "Calgary",
      "region": "Calgary Zone",
      "waitTime": 273,
      "waitTimeLabel": "4 hr 33 min",
      "status": "Red",
      "updatedAt": "2026-07-22T01:55:18.389Z",
      "category": "Emergency",
      "address": "7007 14 Street SW Calgary Alberta T2V 1P9",
      "note": "Open 24 hours<br />",
      "latitude": 50.98923,
      "longitude": -114.095134
    },
    {
      "id": "south-health-campus-children",
      "name": "South Health Campus Children",
      "city": "Calgary",
      "region": "Calgary Zone",
      "waitTime": 54,
      "waitTimeLabel": "0 hr 54 min",
      "status": "Green",
      "updatedAt": "2026-07-22T01:55:18.389Z",
      "category": "Emergency Departments[;]Emergency",
      "address": "4448 Front Street SE Calgary Alberta T3M 1M4",
      "note": "Children's doctor: 11 am - 11 pm",
      "latitude": 50.881394,
      "longitude": -113.952414
    },
    {
      "id": "airdrie-community-health-centre",
      "name": "Airdrie Community Health Centre",
      "city": "Airdrie",
      "region": "Calgary Zone",
      "waitTime": 70,
      "waitTimeLabel": "1 hr 10 min",
      "status": "Yellow",
      "updatedAt": "2026-07-22T01:55:18.389Z",
      "category": "Urgent Care",
      "address": "604 Main Street S Airdrie Alberta T4B 3K7",
      "note": "Open 24 hours",
      "latitude": 51.287022,
      "longitude": -114.013389
    },
    {
      "id": "cochrane-community-health-centre",
      "name": "Cochrane Community Health Centre",
      "city": "Cochrane",
      "region": "Calgary Zone",
      "waitTime": 80,
      "waitTimeLabel": "1 hr 20 min",
      "status": "Yellow",
      "updatedAt": "2026-07-22T01:55:18.389Z",
      "category": "Urgent Care",
      "address": "60 Grande Boulevard Cochrane Alberta T4C 0S4",
      "note": "8 am – 10 pm",
      "latitude": 51.185046,
      "longitude": -114.47305
    },
    {
      "id": "okotoks-health-and-wellness-centre",
      "name": "Okotoks Health and Wellness Centre",
      "city": "Okotoks",
      "region": "Calgary Zone",
      "waitTime": 87,
      "waitTimeLabel": "1 hr 27 min",
      "status": "Yellow",
      "updatedAt": "2026-07-22T01:55:18.389Z",
      "category": "Urgent Care",
      "address": "11 Cimarron Common Okotoks Alberta T1S 2E9",
      "note": "8 am – 10 pm",
      "latitude": 50.707604,
      "longitude": -113.972141
    },
    {
      "id": "sheldon-m-chumir-centre",
      "name": "Sheldon M. Chumir Centre",
      "city": "Calgary",
      "region": "Calgary Zone",
      "waitTime": 75,
      "waitTimeLabel": "1 hr 15 min",
      "status": "Yellow",
      "updatedAt": "2026-07-22T01:55:18.389Z",
      "category": "Urgent Care",
      "address": "1213 4 Street SW Calgary Alberta T2R 0X7",
      "note": "Open 24 hours",
      "latitude": 51.04152,
      "longitude": -114.071972
    },
    {
      "id": "south-calgary-health-centre",
      "name": "South Calgary Health Centre",
      "city": "Calgary",
      "region": "Calgary Zone",
      "waitTime": 0,
      "waitTimeLabel": "Closing soon",
      "status": "Green",
      "updatedAt": "2026-07-22T01:55:18.389Z",
      "category": "Urgent Care",
      "address": "31 Sunpark Plaza SE Calgary Alberta T2X 3W5",
      "note": "8 am – 8 pm",
      "latitude": 50.90275,
      "longitude": -114.059027
    },
    {
      "id": "devon-general-hospital",
      "name": "Devon General Hospital",
      "city": "Devon",
      "region": "Edmonton Zone",
      "waitTime": 280,
      "waitTimeLabel": "4 hr 40 min",
      "status": "Red",
      "updatedAt": "2026-07-22T01:55:18.389Z",
      "category": "Emergency",
      "address": "101 Erie Street S Devon Alberta T9G 1A6",
      "note": "Open 24 hours",
      "latitude": 53.351493,
      "longitude": -113.730785
    },
    {
      "id": "fort-sask-community-hospital",
      "name": "Fort Sask Community Hospital",
      "city": "Fort Saskatchewan",
      "region": "Edmonton Zone",
      "waitTime": 257,
      "waitTimeLabel": "4 hr 17 min",
      "status": "Red",
      "updatedAt": "2026-07-22T01:55:18.389Z",
      "category": "Emergency",
      "address": "9401 86 Avenue Fort Saskatchewan Alberta T8L 0C6",
      "note": "Open 24 hours",
      "latitude": 53.693182,
      "longitude": -113.21334
    },
    {
      "id": "grey-nuns-community-hospital",
      "name": "Grey Nuns Community Hospital",
      "city": "Edmonton",
      "region": "Edmonton Zone",
      "waitTime": 202,
      "waitTimeLabel": "3 hr 22 min",
      "status": "Red",
      "updatedAt": "2026-07-22T01:55:18.389Z",
      "category": "Emergency",
      "address": "1100 Youville Drive NW Edmonton Alberta T6L 5X8",
      "note": "Open 24 hours",
      "latitude": 53.462649,
      "longitude": -113.432437
    },
    {
      "id": "leduc-community-hospital",
      "name": "Leduc Community Hospital",
      "city": "Leduc",
      "region": "Edmonton Zone",
      "waitTime": 194,
      "waitTimeLabel": "3 hr 14 min",
      "status": "Red",
      "updatedAt": "2026-07-22T01:55:18.389Z",
      "category": "Emergency",
      "address": "4210 48 Street Leduc Alberta T9E 5Z3",
      "note": "Open 24 hours",
      "latitude": 53.254987,
      "longitude": -113.544877
    },
    {
      "id": "misericordia-community-hospital",
      "name": "Misericordia Community Hospital",
      "city": "Edmonton",
      "region": "Edmonton Zone",
      "waitTime": 339,
      "waitTimeLabel": "5 hr 39 min",
      "status": "Red",
      "updatedAt": "2026-07-22T01:55:18.389Z",
      "category": "Emergency",
      "address": "16940 87 Avenue NW Edmonton Alberta T5R 4H5",
      "note": "Open 24 hours",
      "latitude": 53.519634,
      "longitude": -113.613448
    },
    {
      "id": "northeast-community-health-centre",
      "name": "Northeast Community Health Centre",
      "city": "Edmonton",
      "region": "Edmonton Zone",
      "waitTime": 296,
      "waitTimeLabel": "4 hr 56 min",
      "status": "Red",
      "updatedAt": "2026-07-22T01:55:18.389Z",
      "category": "Emergency",
      "address": "14007 50 Street Edmonton Alberta T5A 5E4",
      "note": "Open 24 hours",
      "latitude": 53.604519,
      "longitude": -113.418458
    },
    {
      "id": "royal-alexandra-hospital",
      "name": "Royal Alexandra Hospital",
      "city": "Edmonton",
      "region": "Edmonton Zone",
      "waitTime": 325,
      "waitTimeLabel": "5 hr 25 min",
      "status": "Red",
      "updatedAt": "2026-07-22T01:55:18.389Z",
      "category": "Emergency",
      "address": "10240 Kingsway Avenue NW Edmonton Alberta T5H 3V9",
      "note": "Open 24 hours",
      "latitude": 53.556151,
      "longitude": -113.496108
    },
    {
      "id": "stollery-children-s-hospital",
      "name": "Stollery Children's Hospital",
      "city": "Edmonton",
      "region": "Edmonton Zone",
      "waitTime": 233,
      "waitTimeLabel": "3 hr 53 min",
      "status": "Red",
      "updatedAt": "2026-07-22T01:55:18.389Z",
      "category": "Emergency",
      "address": "8440 112 Street Edmonton Alberta T6G 2B7",
      "note": "Open 24 hours for patients 17 & under (one adult family/support person allowed)",
      "latitude": 53.520765,
      "longitude": -113.52101
    },
    {
      "id": "strathcona-community-hospital",
      "name": "Strathcona Community Hospital",
      "city": "Sherwood Park",
      "region": "Edmonton Zone",
      "waitTime": 290,
      "waitTimeLabel": "4 hr 50 min",
      "status": "Red",
      "updatedAt": "2026-07-22T01:55:18.389Z",
      "category": "Emergency",
      "address": "9000 Emerald Drive\n Sherwood Park Alberta T8H 0J3",
      "note": "Open 24 hours<br />This location is in Sherwood Park",
      "latitude": 53.568056,
      "longitude": -113.276389
    },
    {
      "id": "sturgeon-community-hospital",
      "name": "Sturgeon Community Hospital",
      "city": "St. Albert",
      "region": "Edmonton Zone",
      "waitTime": 361,
      "waitTimeLabel": "6 hr 1 min",
      "status": "Red",
      "updatedAt": "2026-07-22T01:55:18.389Z",
      "category": "Emergency",
      "address": "201 Boudreau Road St. Albert Alberta T8N 6C4",
      "note": "Open 24 hours<br />This location is in St. Albert",
      "latitude": 53.654158,
      "longitude": -113.627852
    },
    {
      "id": "university-of-alberta-hospital",
      "name": "University of Alberta Hospital",
      "city": "Edmonton",
      "region": "Edmonton Zone",
      "waitTime": 320,
      "waitTimeLabel": "5 hr 20 min",
      "status": "Red",
      "updatedAt": "2026-07-22T01:55:18.389Z",
      "category": "Emergency",
      "address": "8440 112 Street NW Edmonton Alberta T6G 2B7",
      "note": "Open 24 hours",
      "latitude": 53.520765,
      "longitude": -113.52101
    },
    {
      "id": "westview-health-centre",
      "name": "WestView Health Centre",
      "city": "Stony Plain",
      "region": "Edmonton Zone",
      "waitTime": 227,
      "waitTimeLabel": "3 hr 47 min",
      "status": "Red",
      "updatedAt": "2026-07-22T01:55:18.389Z",
      "category": "Emergency",
      "address": "4405 South Park Drive Stony Plain Alberta T7Z 2M7",
      "note": "Open 24 hours<br />This location is in Stony Plain",
      "latitude": 53.537101,
      "longitude": -113.978804
    },
    {
      "id": "red-deer-regional-hospital",
      "name": "Red Deer Regional Hospital",
      "city": "Red Deer",
      "region": "Central Zone",
      "waitTime": 308,
      "waitTimeLabel": "5 hr 8 min",
      "status": "Red",
      "updatedAt": "2026-07-22T01:55:18.389Z",
      "category": "Emergency",
      "address": "3942 50A Avenue Red Deer Alberta T4N 4E7",
      "note": "Open 24 hours",
      "latitude": 52.26046,
      "longitude": -113.8173
    },
    {
      "id": "innisfail-health-centre",
      "name": "Innisfail Health Centre",
      "city": "Innisfail",
      "region": "Central Zone",
      "waitTime": -1,
      "waitTimeLabel": "Wait times unavailable",
      "status": "Green",
      "updatedAt": "2026-07-22T01:55:18.389Z",
      "category": "Emergency",
      "address": "5023 42 Street Innisfail Alberta T4G 1A9",
      "note": "Open 24 hours",
      "latitude": 52.019078,
      "longitude": -113.951424
    },
    {
      "id": "lacombe-hospital-and-care-centre",
      "name": "Lacombe Hospital and Care Centre",
      "city": "Lacombe",
      "region": "Central Zone",
      "waitTime": -1,
      "waitTimeLabel": "Wait times unavailable",
      "status": "Green",
      "updatedAt": "2026-07-22T01:55:18.389Z",
      "category": "Emergency",
      "address": "5430 47 Ave Lacombe Alberta T4L 1G8",
      "note": "Open 24 hours",
      "latitude": 52.460883,
      "longitude": -113.740762
    },
    {
      "id": "chinook-regional-hospital",
      "name": "Chinook Regional Hospital",
      "city": "Lethbridge",
      "region": "South Zone",
      "waitTime": 173,
      "waitTimeLabel": "2 hr 53 min",
      "status": "Red",
      "updatedAt": "2026-07-22T01:55:18.389Z",
      "category": "Emergency",
      "address": "960 19 Street S Lethbridge Alberta T1J 1W5",
      "note": "Open 24 hours",
      "latitude": 49.68535,
      "longitude": -112.81519
    },
    {
      "id": "medicine-hat-regional-hospital",
      "name": "Medicine Hat Regional Hospital",
      "city": "Medicine Hat",
      "region": "South Zone",
      "waitTime": 109,
      "waitTimeLabel": "1 hr 49 min",
      "status": "Yellow",
      "updatedAt": "2026-07-22T01:55:18.389Z",
      "category": "Emergency",
      "address": "666 5 Street SW Medicine Hat Alberta T1A 4H6",
      "note": "Open 24 hours",
      "latitude": 50.03431,
      "longitude": -110.70329
    },
    {
      "id": "grande-prairie-regional-hospital",
      "name": "Grande Prairie Regional Hospital",
      "city": "Grande Prairie",
      "region": "North Zone",
      "waitTime": 66,
      "waitTimeLabel": "1 hr 6 min",
      "status": "Yellow",
      "updatedAt": "2026-07-22T01:55:18.389Z",
      "category": "Emergency",
      "address": "11205 110 Street Grande Prairie Alberta T8V 4B1",
      "note": "Open 24 hours",
      "latitude": 55.18115,
      "longitude": -118.82464
    },
    {
      "id": "northern-lights-regional-health-centre",
      "name": "Northern Lights Regional Health Centre",
      "city": "Fort McMurray",
      "region": "North Zone",
      "waitTime": 30,
      "waitTimeLabel": "0 hr 30 min",
      "status": "Green",
      "updatedAt": "2026-07-22T01:55:18.389Z",
      "category": "Emergency",
      "address": "7 Hospital Street Fort McMurray Alberta T9H 1P2",
      "note": "Open 24 hours",
      "latitude": 56.716573,
      "longitude": -111.361616
    }
  ],
  "lastUpdated": "2026-07-22T01:55:18.389Z"
}